<?xml version="1.0" encoding="UTF-8"?>
<Buildings>
	<Building>
		<BuildingCode>KOH</BuildingCode>
		<BuildingName>King Olympic Hall</BuildingName>
		<Position>
			<latitude>34.024547</latitude>
			<longitude>-118.288</longitude>
		</Position>
		<Address>
			<StreetNo>1027</StreetNo>
			<StrName>W 34th St</StrName>
			<City>Los Angeles</City>
			<State>CA</State>
			<Zip>90007</Zip>
		</Address>
	</Building>
	<Building>
		<BuildingCode>CFX</BuildingCode>
		<BuildingName>Cromwell Field</BuildingName>
		<Position>
			<latitude>34.021631</latitude>
			<longitude>-118.289</longitude>
		</Position>
		<Address>
			<StreetNo>1026</StreetNo>
			<StrName>W 34th St</StrName>
			<City>Los Angeles</City>
			<State>CA</State>
			<Zip>90089</Zip>
		</Address>
	</Building>

	<Building>
		<BuildingCode>JEP</BuildingCode>
		<BuildingName>JEP House</BuildingName>
		<Position>
			<latitude>34.022947</latitude>
			<longitude>-118.284</longitude>
		</Position>
		<Address>
			<StreetNo>801</StreetNo>
			<StrName>W 34th St</StrName>
			<City>Los Angeles</City>
			<State>CA</State>
			<Zip>90089</Zip>
		</Address>
	</Building>
	<Building>
		<BuildingCode>SHC</BuildingCode>
		<BuildingName>Student Health Center</BuildingName>
		<Position>
			<latitude>34.023303</latitude>
			<longitude>-118.285</longitude>
		</Position>
		<Address>
			<StreetNo>849</StreetNo>
			<StrName>W 34th St</StrName>
			<City>Los Angeles</City>
			<State>CA</State>
			<Zip>90089</Zip>
		</Address>
	</Building>

	<Building>
		<BuildingCode>LVY</BuildingCode>
		<BuildingName>Leavey Library </BuildingName>
		<Position>
			<latitude>34.021595</latitude>
			<longitude>-118.282</longitude>
		</Position>
		<Address>
			<StreetNo>651</StreetNo>
			<StrName>W 34th St</StrName>
			<City>Los Angeles</City>
			<State>CA</State>
			<Zip>90089</Zip>
		</Address>
	</Building>

	<Building>
		<BuildingCode>VKC</BuildingCode>
		<BuildingName>Von KleinSmid Center</BuildingName>
		<Position>
			<latitude>34.021649</latitude>
			<longitude>-118.284</longitude>
		</Position>
		<Address>
			<StreetNo>3518</StreetNo>
			<StrName>Trousdale</StrName>
			<City>Los Angeles</City>
			<State>CA</State>
			<Zip>90089</Zip>
		</Address>
	</Building>

	<Building>
		<BuildingCode>WPH</BuildingCode>
		<BuildingName>Waite Phillips Hall</BuildingName>
		<Position>
			<latitude>34.022289</latitude>
			<longitude>-118.284</longitude>
		</Position>
		<Address>
			<StreetNo>3550</StreetNo>
			<StrName>Trousdale</StrName>
			<City>Los Angeles</City>
			<State>CA</State>
			<Zip>90089</Zip>
		</Address>
	</Building>

	<Building>
		<BuildingCode>JHH</BuildingCode>
		<BuildingName>John Hubbard Hall</BuildingName>
		<Position>
			<latitude>34.020101</latitude>
			<longitude>-118.284</longitude>
		</Position>
		<Address>
			<StreetNo>615</StreetNo>
			<StrName>Childs Way</StrName>
			<City>Los Angeles</City>
			<State>CA</State>
			<Zip>90089</Zip>
		</Address>
	</Building>

	<Building>
		<BuildingCode>REG</BuildingCode>
		<BuildingName>Registration Builing</BuildingName>
		<Position>
			<latitude>34.019603</latitude>
			<longitude>-118.282</longitude>
		</Position>
		<Address>
			<StreetNo>611</StreetNo>
			<StrName>Childs Way</StrName>
			<City>Los Angeles</City>
			<State>CA</State>
			<Zip>90089</Zip>
		</Address>
	</Building>

	<Building>
		<BuildingCode>STU</BuildingCode>
		<BuildingName>Student Union</BuildingName>
		<Position>
			<latitude>34.020226</latitude>
			<longitude>-118.286</longitude>
		</Position>
		<Address>
			<StreetNo>3551</StreetNo>
			<StrName>Trousdale</StrName>
			<City>Los Angeles</City>
			<State>CA</State>
			<Zip>90089</Zip>
		</Address>
	</Building>

	<Building>
		<BuildingCode>BKS</BuildingCode>
		<BuildingName>Bookstore</BuildingName>
		<Position>
			<latitude>34.020635</latitude>
			<longitude>-118.286</longitude>
		</Position>
		<Address>
			<StreetNo>840</StreetNo>
			<StrName>Childs Way</StrName>
			<City>Los Angeles</City>
			<State>CA</State>
			<Zip>90089</Zip>
		</Address>
	</Building>

	<Building>
		<BuildingCode>RTH</BuildingCode>
		<BuildingName>Ronald Tutor Hall</BuildingName>
		<Position>
			<latitude>34.020137</latitude>
			<longitude>-118.29</longitude>
		</Position>
		<Address>
			<StreetNo>3710</StreetNo>
			<StrName>McClintock</StrName>
			<City>Los Angeles</City>
			<State>CA</State>
			<Zip>90089</Zip>
		</Address>
	</Building>

	<Building>
		<BuildingCode>SAL</BuildingCode>
		<BuildingName>Salvatori Com. Center</BuildingName>
		<Position>
			<latitude>34.01955</latitude>
			<longitude>-118.289</longitude>
		</Position>
		<Address>
			<StreetNo>941</StreetNo>
			<StrName>W 37th Place</StrName>
			<City>Los Angeles</City>
			<State>CA</State>
			<Zip>90089</Zip>
		</Address>
	</Building>

	<Building>
		<BuildingCode>EEB</BuildingCode>
		<BuildingName>Electrical Engr Center</BuildingName>
		<Position>
			<latitude>34.019728</latitude>
			<longitude>-118.29</longitude>
		</Position>
		<Address>
			<StreetNo>3715</StreetNo>
			<StrName>McClintock</StrName>
			<City>Los Angeles</City>
			<State>CA</State>
			<Zip>90089</Zip>
		</Address>
	</Building>

	<Building>
		<BuildingCode>OHE</BuildingCode>
		<BuildingName>Olin Hall Engineering</BuildingName>
		<Position>
			<latitude>34.020493</latitude>
			<longitude>-118.29</longitude>
		</Position>
		<Address>
			<StreetNo>3650</StreetNo>
			<StrName>McClintock</StrName>
			<City>Los Angeles</City>
			<State>CA</State>
			<Zip>90089</Zip>
		</Address>
	</Building>




	
</Buildings>

